% program   : RTKPOST ver.demo5 b33c
% inp file  : C:\Users\camil-code\Desktop\NAS - PROYECTOS\ECOPETROL\2411_AFINO\1.Procesamiento\1.Topografia\Rastreos\101024\Base\GPS_o\GPS043300.24O
% inp file  : C:\Users\camil-code\Desktop\NAS - PROYECTOS\ECOPETROL\2411_AFINO\1.Procesamiento\1.Topografia\Rastreos\101024\Base\GPS_o\GPS043300.24N
% obs start : 2024/11/25 15:05:41.0 GPST (week2342 140741.0s)
% obs end   : 2024/11/25 20:16:04.0 GPST (week2342 159364.0s)
% pos mode  : single
% elev mask : 10.0 deg
% ionos opt : off
% tropo opt : off
% ephemeris : broadcast
% navi sys  : gps glonass galileo beidou
%
% (lat/lon/height=WGS84/ellipsoidal,Q=1:fix,2:float,3:sbas,4:dgps,5:single,6:ppp,ns=# of satellites)
%  GPST                  latitude(deg) longitude(deg)  height(m)   Q  ns   sdn(m)   sde(m)   sdu(m)  sdne(m)  sdeu(m)  sdun(m) age(s)  ratio
2024/11/25 15:05:41.000    9.225186810  -75.827308414    25.8501   5   7   4.6840   5.3279  18.4623  -1.1831   3.7518   2.3258   0.00    0.0
2024/11/25 15:05:42.000    9.225186454  -75.827309159    25.4650   5   7   4.6840   5.3283  18.4635  -1.1820   3.7554   2.3300   0.00    0.0
2024/11/25 15:05:43.000    9.225185712  -75.827308413    25.6086   5   7   4.6839   5.3287  18.4646  -1.1809   3.7591   2.3342   0.00    0.0
2024/11/25 15:05:44.000    9.225186545  -75.827308334    25.9927   5   7   4.6838   5.3290  18.4658  -1.1798   3.7628   2.3384   0.00    0.0
2024/11/25 15:05:45.000    9.225186572  -75.827308740    25.9529   5   7   4.6837   5.3294  18.4670  -1.1787   3.7664   2.3426   0.00    0.0
2024/11/25 15:05:46.000    9.225187081  -75.827308487    25.9158   5   7   4.6836   5.3298  18.4681  -1.1776   3.7701   2.3468   0.00    0.0
2024/11/25 15:05:47.000    9.225187308  -75.827307943    26.4203   5   7   4.6836   5.3302  18.4693  -1.1765   3.7737   2.3509   0.00    0.0
2024/11/25 15:05:48.000    9.225187012  -75.827307501    26.2799   5   7   4.6835   5.3306  18.4704  -1.1754   3.7774   2.3551   0.00    0.0
2024/11/25 15:05:49.000    9.225186611  -75.827308114    26.1663   5   7   4.6834   5.3310  18.4716  -1.1743   3.7811   2.3592   0.00    0.0
2024/11/25 15:05:50.000    9.225186332  -75.827309061    26.0374   5   7   4.6833   5.3314  18.4727  -1.1732   3.7847   2.3634   0.00    0.0
2024/11/25 15:05:51.000    9.225185882  -75.827308790    26.3293   5   7   4.6832   5.3318  18.4739  -1.1720   3.7884   2.3675   0.00    0.0
2024/11/25 15:05:52.000    9.225184971  -75.827309159    26.3794   5   7   4.6831   5.3322  18.4751  -1.1709   3.7920   2.3716   0.00    0.0
2024/11/25 15:05:53.000    9.225184898  -75.827308981    26.6723   5   7   4.6831   5.3325  18.4762  -1.1698   3.7957   2.3758   0.00    0.0
2024/11/25 15:05:54.000    9.225184888  -75.827308228    26.6622   5   7   4.6830   5.3329  18.4774  -1.1687   3.7993   2.3799   0.00    0.0
2024/11/25 15:05:55.000    9.225184704  -75.827308724    26.4023   5   7   4.6829   5.3333  18.4785  -1.1676   3.8029   2.3840   0.00    0.0
2024/11/25 15:05:56.000    9.225184609  -75.827309170    26.3391   5   7   4.6828   5.3337  18.4797  -1.1664   3.8066   2.3881   0.00    0.0
2024/11/25 15:05:57.000    9.225185371  -75.827309748    26.1317   5   7   4.6827   5.3341  18.4808  -1.1653   3.8102   2.3922   0.00    0.0
2024/11/25 15:05:58.000    9.225185091  -75.827310397    26.0251   5   7   4.6827   5.3345  18.4820  -1.1642   3.8139   2.3963   0.00    0.0
2024/11/25 15:05:59.000    9.225184730  -75.827310062    26.1414   5   7   4.6826   5.3349  18.4831  -1.1630   3.8175   2.4004   0.00    0.0
2024/11/25 15:06:00.000    9.225184365  -75.827311036    25.6236   5   7   4.6825   5.3353  18.4843  -1.1619   3.8211   2.4044   0.00    0.0
2024/11/25 15:06:01.000    9.225184665  -75.827311611    25.5658   5   7   4.6824   5.3357  18.4854  -1.1607   3.8248   2.4085   0.00    0.0
2024/11/25 15:06:02.000    9.225184375  -75.827311748    25.7205   5   7   4.6823   5.3361  18.4866  -1.1596   3.8284   2.4126   0.00    0.0
2024/11/25 15:06:03.000    9.225183681  -75.827311991    25.6751   5   7   4.6823   5.3365  18.4877  -1.1584   3.8320   2.4166   0.00    0.0
2024/11/25 15:06:04.000    9.225183869  -75.827312031    25.7285   5   7   4.6822   5.3369  18.4889  -1.1573   3.8356   2.4207   0.00    0.0
2024/11/25 15:06:05.000    9.225184190  -75.827312685    25.3440   5   7   4.6821   5.3373  18.4900  -1.1561   3.8393   2.4247   0.00    0.0
2024/11/25 15:06:06.000    9.225183731  -75.827313149    25.2050   5   7   4.6820   5.3377  18.4912  -1.1550   3.8429   2.4287   0.00    0.0
2024/11/25 15:06:07.000    9.225183784  -75.827313170    24.9936   5   7   4.6819   5.3381  18.4923  -1.1538   3.8465   2.4328   0.00    0.0
2024/11/25 15:06:08.000    9.225183621  -75.827313807    25.0850   5   7   4.6819   5.3385  18.4935  -1.1527   3.8501   2.4368   0.00    0.0
2024/11/25 15:06:09.000    9.225183421  -75.827313592    25.2257   5   7   4.6818   5.3389  18.4946  -1.1515   3.8537   2.4408   0.00    0.0
2024/11/25 15:06:10.000    9.225183721  -75.827313834    25.1158   5   7   4.6817   5.3393  18.4958  -1.1503   3.8573   2.4448   0.00    0.0
2024/11/25 15:06:11.000    9.225183676  -75.827314037    25.0133   5   7   4.6816   5.3397  18.4969  -1.1492   3.8610   2.4488   0.00    0.0
2024/11/25 15:06:12.000    9.225183845  -75.827313932    24.9958   5   7   4.6815   5.3401  18.4980  -1.1480   3.8646   2.4528   0.00    0.0
2024/11/25 15:06:13.000    9.225183344  -75.827313926    25.1595   5   7   4.6815   5.3405  18.4992  -1.1468   3.8682   2.4568   0.00    0.0
2024/11/25 15:06:14.000    9.225183567  -75.827313707    24.8927   5   7   4.6814   5.3409  18.5003  -1.1457   3.8718   2.4608   0.00    0.0
2024/11/25 15:06:15.000    9.225182864  -75.827313779    24.6593   5   7   4.6813   5.3413  18.5015  -1.1445   3.8754   2.4648   0.00    0.0
2024/11/25 15:06:16.000    9.225182886  -75.827313792    24.3064   5   7   4.6812   5.3417  18.5026  -1.1433   3.8790   2.4687   0.00    0.0
2024/11/25 15:06:17.000    9.225182484  -75.827314001    24.3164   5   7   4.6812   5.3421  18.5038  -1.1421   3.8826   2.4727   0.00    0.0
2024/11/25 15:06:18.000    9.225182088  -75.827313632    24.3148   5   7   4.6811   5.3425  18.5049  -1.1409   3.8862   2.4767   0.00    0.0
2024/11/25 15:06:19.000    9.225182381  -75.827314020    24.0608   5   7   4.6810   5.3429  18.5060  -1.1398   3.8898   2.4806   0.00    0.0
2024/11/25 15:06:20.000    9.225182200  -75.827313880    23.8755   5   7   4.6809   5.3433  18.5072  -1.1386   3.8934   2.4846   0.00    0.0
2024/11/25 15:06:21.000    9.225182729  -75.827313171    23.7801   5   7   4.6809   5.3437  18.5083  -1.1374   3.8969   2.4885   0.00    0.0
2024/11/25 15:06:22.000    9.225182755  -75.827312632    24.0711   5   7   4.6808   5.3441  18.5095  -1.1362   3.9005   2.4924   0.00    0.0
2024/11/25 15:06:23.000    9.225182425  -75.827312315    24.2158   5   7   4.6807   5.3445  18.5106  -1.1350   3.9041   2.4964   0.00    0.0
2024/11/25 15:06:24.000    9.225182954  -75.827311837    24.4133   5   7   4.6806   5.3449  18.5117  -1.1338   3.9077   2.5003   0.00    0.0
2024/11/25 15:06:25.000    9.225182496  -75.827311590    24.2809   5   7   4.6805   5.3453  18.5129  -1.1326   3.9113   2.5042   0.00    0.0
2024/11/25 15:06:26.000    9.225182852  -75.827310999    24.3366   5   7   4.6805   5.3457  18.5140  -1.1314   3.9149   2.5081   0.00    0.0
2024/11/25 15:06:27.000    9.225182915  -75.827310199    24.3168   5   7   4.6804   5.3461  18.5151  -1.1302   3.9184   2.5120   0.00    0.0
2024/11/25 15:06:28.000    9.225182811  -75.827309654    24.2879   5   7   4.6803   5.3466  18.5163  -1.1290   3.9220   2.5159   0.00    0.0
2024/11/25 15:06:29.000    9.225182537  -75.827310059    24.2585   5   7   4.6802   5.3470  18.5174  -1.1277   3.9256   2.5198   0.00    0.0
2024/11/25 15:06:30.000    9.225181962  -75.827309342    24.0763   5   7   4.6802   5.3474  18.5185  -1.1265   3.9292   2.5237   0.00    0.0
2024/11/25 15:06:31.000    9.225181532  -75.827309566    24.2640   5   7   4.6801   5.3478  18.5197  -1.1253   3.9327   2.5276   0.00    0.0
2024/11/25 15:06:32.000    9.225181575  -75.827309479    24.2887   5   7   4.6800   5.3482  18.5208  -1.1241   3.9363   2.5314   0.00    0.0
2024/11/25 15:06:33.000    9.225181410  -75.827309456    24.0543   5   7   4.6799   5.3486  18.5219  -1.1229   3.9399   2.5353   0.00    0.0
2024/11/25 15:06:34.000    9.225181156  -75.827309475    24.3362   5   7   4.6799   5.3490  18.5231  -1.1216   3.9434   2.5392   0.00    0.0
2024/11/25 15:06:35.000    9.225181085  -75.827308976    24.3768   5   7   4.6798   5.3494  18.5242  -1.1204   3.9470   2.5430   0.00    0.0
2024/11/25 15:06:36.000    9.225181004  -75.827309255    24.6059   5   7   4.6797   5.3498  18.5253  -1.1192   3.9506   2.5469   0.00    0.0
2024/11/25 15:06:37.000    9.225181026  -75.827309012    24.6782   5   7   4.6796   5.3503  18.5265  -1.1179   3.9541   2.5507   0.00    0.0
2024/11/25 15:06:38.000    9.225181485  -75.827309628    24.4498   5   7   4.6796   5.3507  18.5276  -1.1167   3.9577   2.5546   0.00    0.0
2024/11/25 15:06:39.000    9.225181396  -75.827309229    25.0065   5   7   4.6795   5.3511  18.5287  -1.1155   3.9612   2.5584   0.00    0.0
2024/11/25 15:06:40.000    9.225182271  -75.827309702    25.3810   5   7   4.6794   5.3515  18.5298  -1.1142   3.9648   2.5622   0.00    0.0
2024/11/25 15:06:41.000    9.225182571  -75.827309988    25.1940   5   7   4.6794   5.3519  18.5310  -1.1130   3.9684   2.5661   0.00    0.0
2024/11/25 15:06:42.000    9.225179335  -75.827285142    40.5615   5   8   4.6678   4.6989  11.7340  -0.6308  -4.5808   3.3608   0.00    0.0
2024/11/25 15:06:43.000    9.225179299  -75.827285029    40.5907   5   8   4.6678   4.6987  11.7340  -0.6306  -4.5801   3.3613   0.00    0.0
2024/11/25 15:06:44.000    9.225180091  -75.827285886    40.5285   5   8   4.6679   4.6985  11.7339  -0.6305  -4.5794   3.3617   0.00    0.0
2024/11/25 15:06:45.000    9.225180070  -75.827286135    40.5409   5   8   4.6679   4.6983  11.7339  -0.6304  -4.5787   3.3622   0.00    0.0
2024/11/25 15:06:46.000    9.225180098  -75.827285675    40.6527   5   8   4.6679   4.6981  11.7339  -0.6302  -4.5780   3.3627   0.00    0.0
2024/11/25 15:06:47.000    9.225180418  -75.827286660    40.8105   5   8   4.6679   4.6979  11.7339  -0.6301  -4.5773   3.3632   0.00    0.0
2024/11/25 15:06:48.000    9.225180760  -75.827286413    40.8878   5   8   4.6679   4.6976  11.7339  -0.6299  -4.5766   3.3636   0.00    0.0
2024/11/25 15:06:49.000    9.225180595  -75.827286108    40.9733   5   8   4.6679   4.6974  11.7339  -0.6298  -4.5759   3.3641   0.00    0.0
2024/11/25 15:06:50.000    9.225181106  -75.827286581    41.0421   5   8   4.6679   4.6972  11.7339  -0.6296  -4.5753   3.3646   0.00    0.0
2024/11/25 15:06:51.000    9.225181092  -75.827286548    41.0747   5   8   4.6679   4.6970  11.7339  -0.6295  -4.5746   3.3650   0.00    0.0
2024/11/25 15:06:52.000    9.225181147  -75.827286421    41.1159   5   8   4.6679   4.6968  11.7339  -0.6293  -4.5739   3.3655   0.00    0.0
2024/11/25 15:06:53.000    9.225181094  -75.827285963    41.0900   5   8   4.6679   4.6966  11.7338  -0.6292  -4.5732   3.3660   0.00    0.0
2024/11/25 15:06:54.000    9.225181406  -75.827285836    41.2755   5   8   4.6679   4.6964  11.7338  -0.6291  -4.5725   3.3665   0.00    0.0
2024/11/25 15:06:55.000    9.225180805  -75.827285757    41.2787   5   8   4.6679   4.6961  11.7338  -0.6289  -4.5718   3.3669   0.00    0.0
2024/11/25 15:06:56.000    9.225180995  -75.827285939    41.3653   5   8   4.6679   4.6959  11.7338  -0.6288  -4.5711   3.3674   0.00    0.0
2024/11/25 15:06:57.000    9.225181385  -75.827285579    41.4688   5   8   4.6680   4.6957  11.7338  -0.6286  -4.5704   3.3679   0.00    0.0
2024/11/25 15:06:58.000    9.225181694  -75.827285595    41.8195   5   8   4.6680   4.6955  11.7338  -0.6285  -4.5697   3.3683   0.00    0.0
2024/11/25 15:06:59.000    9.225181927  -75.827286316    42.0124   5   8   4.6680   4.6953  11.7337  -0.6283  -4.5690   3.3688   0.00    0.0
2024/11/25 15:07:00.000    9.225181514  -75.827286015    41.9830   5   8   4.6680   4.6951  11.7337  -0.6282  -4.5683   3.3693   0.00    0.0
2024/11/25 15:07:01.000    9.225181536  -75.827285650    41.8332   5   8   4.6680   4.6949  11.7337  -0.6280  -4.5676   3.3697   0.00    0.0
2024/11/25 15:07:02.000    9.225181629  -75.827285789    42.1810   5   8   4.6680   4.6946  11.7337  -0.6279  -4.5669   3.3702   0.00    0.0
2024/11/25 15:07:03.000    9.225181675  -75.827285645    42.3325   5   8   4.6680   4.6944  11.7337  -0.6277  -4.5662   3.3707   0.00    0.0
2024/11/25 15:07:04.000    9.225182538  -75.827284783    42.5184   5   8   4.6680   4.6942  11.7336  -0.6276  -4.5655   3.3711   0.00    0.0
2024/11/25 15:07:05.000    9.225182747  -75.827285306    42.5974   5   8   4.6680   4.6940  11.7336  -0.6274  -4.5648   3.3716   0.00    0.0
2024/11/25 15:07:06.000    9.225182558  -75.827284952    42.7601   5   8   4.6680   4.6938  11.7336  -0.6273  -4.5641   3.3721   0.00    0.0
2024/11/25 15:07:07.000    9.225181913  -75.827284664    42.7779   5   8   4.6680   4.6936  11.7336  -0.6271  -4.5634   3.3725   0.00    0.0
2024/11/25 15:07:08.000    9.225182285  -75.827284341    42.7761   5   8   4.6680   4.6934  11.7336  -0.6270  -4.5627   3.3730   0.00    0.0
2024/11/25 15:07:09.000    9.225181795  -75.827285197    43.0433   5   8   4.6680   4.6931  11.7335  -0.6268  -4.5620   3.3735   0.00    0.0
2024/11/25 15:07:10.000    9.225181730  -75.827285638    43.3620   5   8   4.6680   4.6929  11.7335  -0.6267  -4.5613   3.3739   0.00    0.0
2024/11/25 15:07:11.000    9.225182166  -75.827285582    43.5442   5   8   4.6680   4.6927  11.7335  -0.6265  -4.5606   3.3744   0.00    0.0
2024/11/25 15:07:12.000    9.225181978  -75.827285692    43.8014   5   8   4.6680   4.6925  11.7335  -0.6264  -4.5599   3.3748   0.00    0.0
2024/11/25 15:07:13.000    9.225181879  -75.827285131    43.7937   5   8   4.6680   4.6923  11.7334  -0.6262  -4.5592   3.3753   0.00    0.0
2024/11/25 15:07:14.000    9.225182155  -75.827284954    43.8445   5   8   4.6680   4.6921  11.7334  -0.6261  -4.5585   3.3758   0.00    0.0
2024/11/25 15:07:15.000    9.225181703  -75.827284400    43.9263   5   8   4.6681   4.6919  11.7334  -0.6259  -4.5578   3.3762   0.00    0.0
2024/11/25 15:07:16.000    9.225182344  -75.827283652    43.8746   5   8   4.6681   4.6916  11.7333  -0.6258  -4.5571   3.3767   0.00    0.0
2024/11/25 15:07:17.000    9.225182974  -75.827284365    43.9646   5   8   4.6681   4.6914  11.7333  -0.6256  -4.5564   3.3772   0.00    0.0
2024/11/25 15:07:18.000    9.225183187  -75.827284197    44.0436   5   8   4.6681   4.6912  11.7333  -0.6255  -4.5557   3.3776   0.00    0.0
2024/11/25 15:07:19.000    9.225183268  -75.827284093    44.0778   5   8   4.6681   4.6910  11.7333  -0.6253  -4.5550   3.3781   0.00    0.0
2024/11/25 15:07:20.000    9.225183548  -75.827284214    44.1082   5   8   4.6681   4.6908  11.7332  -0.6252  -4.5543   3.3785   0.00    0.0
2024/11/25 15:07:21.000    9.225183642  -75.827284506    44.1242   5   8   4.6681   4.6906  11.7332  -0.6250  -4.5536   3.3790   0.00    0.0
2024/11/25 15:07:22.000    9.225183138  -75.827284676    44.1924   5   8   4.6681   4.6904  11.7332  -0.6249  -4.5529   3.3794   0.00    0.0
2024/11/25 15:07:23.000    9.225183373  -75.827285417    44.3618   5   8   4.6681   4.6901  11.7331  -0.6247  -4.5522   3.3799   0.00    0.0
2024/11/25 15:07:24.000    9.225183814  -75.827284742    44.3552   5   8   4.6681   4.6899  11.7331  -0.6246  -4.5515   3.3804   0.00    0.0
2024/11/25 15:07:25.000    9.225184044  -75.827284342    44.2491   5   8   4.6681   4.6897  11.7331  -0.6244  -4.5508   3.3808   0.00    0.0
2024/11/25 15:07:26.000    9.225183867  -75.827284709    44.1649   5   8   4.6681   4.6895  11.7330  -0.6243  -4.5501   3.3813   0.00    0.0
2024/11/25 15:07:27.000    9.225184380  -75.827284919    44.1312   5   8   4.6681   4.6893  11.7330  -0.6241  -4.5494   3.3817   0.00    0.0
2024/11/25 15:07:28.000    9.225184609  -75.827284379    44.0457   5   8   4.6681   4.6891  11.7330  -0.6239  -4.5487   3.3822   0.00    0.0
2024/11/25 15:07:29.000    9.225185579  -75.827283801    44.0742   5   8   4.6681   4.6889  11.7329  -0.6238  -4.5480   3.3826   0.00    0.0
2024/11/25 15:07:30.000    9.225185954  -75.827282942    44.1958   5   8   4.6681   4.6886  11.7329  -0.6236  -4.5473   3.3831   0.00    0.0
2024/11/25 15:07:31.000    9.225186431  -75.827282537    44.2035   5   8   4.6681   4.6884  11.7329  -0.6235  -4.5466   3.3835   0.00    0.0
2024/11/25 15:07:32.000    9.225186932  -75.827282335    44.2097   5   8   4.6681   4.6882  11.7328  -0.6233  -4.5459   3.3840   0.00    0.0
2024/11/25 15:07:33.000    9.225187317  -75.827282437    44.3040   5   8   4.6681   4.6880  11.7328  -0.6232  -4.5452   3.3844   0.00    0.0
2024/11/25 15:07:34.000    9.225187368  -75.827281564    44.2370   5   8   4.6681   4.6878  11.7327  -0.6230  -4.5445   3.3849   0.00    0.0
2024/11/25 15:07:35.000    9.225187068  -75.827281771    44.2011   5   8   4.6681   4.6876  11.7327  -0.6228  -4.5438   3.3853   0.00    0.0
2024/11/25 15:07:36.000    9.225187313  -75.827281385    44.0367   5   8   4.6681   4.6874  11.7327  -0.6227  -4.5431   3.3858   0.00    0.0
2024/11/25 15:07:37.000    9.225187496  -75.827281804    43.8470   5   8   4.6681   4.6872  11.7326  -0.6225  -4.5424   3.3862   0.00    0.0
2024/11/25 15:07:38.000    9.225187616  -75.827281201    43.6862   5   8   4.6681   4.6869  11.7326  -0.6224  -4.5417   3.3867   0.00    0.0
2024/11/25 15:07:39.000    9.225187804  -75.827281216    43.5425   5   8   4.6681   4.6867  11.7325  -0.6222  -4.5410   3.3871   0.00    0.0
2024/11/25 15:07:40.000    9.225187729  -75.827281581    43.6265   5   8   4.6681   4.6865  11.7325  -0.6221  -4.5403   3.3876   0.00    0.0
2024/11/25 15:07:41.000    9.225187395  -75.827281750    43.6921   5   8   4.6681   4.6863  11.7325  -0.6219  -4.5395   3.3880   0.00    0.0
2024/11/25 15:07:42.000    9.225187761  -75.827282231    43.8506   5   8   4.6681   4.6861  11.7324  -0.6217  -4.5388   3.3885   0.00    0.0
2024/11/25 15:07:43.000    9.225187584  -75.827281890    43.6957   5   8   4.6681   4.6859  11.7324  -0.6216  -4.5381   3.3889   0.00    0.0
2024/11/25 15:07:44.000    9.225187403  -75.827282294    43.7492   5   8   4.6681   4.6857  11.7323  -0.6214  -4.5374   3.3894   0.00    0.0
2024/11/25 15:07:45.000    9.225187480  -75.827282361    43.7780   5   8   4.6681   4.6855  11.7323  -0.6213  -4.5367   3.3898   0.00    0.0
2024/11/25 15:07:46.000    9.225187764  -75.827281937    43.7310   5   8   4.6681   4.6852  11.7322  -0.6211  -4.5360   3.3903   0.00    0.0
2024/11/25 15:07:47.000    9.225188169  -75.827280987    43.5621   5   8   4.6681   4.6850  11.7322  -0.6209  -4.5353   3.3907   0.00    0.0
2024/11/25 15:07:48.000    9.225188109  -75.827280386    43.3868   5   8   4.6681   4.6848  11.7321  -0.6208  -4.5346   3.3911   0.00    0.0
2024/11/25 15:07:49.000    9.225187978  -75.827280707    43.3623   5   8   4.6681   4.6846  11.7321  -0.6206  -4.5339   3.3916   0.00    0.0
2024/11/25 15:07:50.000    9.225187936  -75.827279753    43.2219   5   8   4.6681   4.6844  11.7320  -0.6205  -4.5332   3.3920   0.00    0.0
2024/11/25 15:07:51.000    9.225187276  -75.827279626    43.1130   5   8   4.6681   4.6842  11.7320  -0.6203  -4.5324   3.3925   0.00    0.0
2024/11/25 15:07:52.000    9.225187334  -75.827280040    43.1219   5   8   4.6681   4.6840  11.7319  -0.6201  -4.5317   3.3929   0.00    0.0
2024/11/25 15:07:53.000    9.225187352  -75.827280577    43.1437   5   8   4.6681   4.6838  11.7319  -0.6200  -4.5310   3.3934   0.00    0.0
2024/11/25 15:07:54.000    9.225187045  -75.827280247    43.0874   5   8   4.6681   4.6835  11.7318  -0.6198  -4.5303   3.3938   0.00    0.0
2024/11/25 15:07:55.000    9.225186737  -75.827279797    42.9085   5   8   4.6681   4.6833  11.7318  -0.6196  -4.5296   3.3942   0.00    0.0
2024/11/25 15:07:56.000    9.225187097  -75.827280133    42.9988   5   8   4.6681   4.6831  11.7317  -0.6195  -4.5289   3.3947   0.00    0.0
2024/11/25 15:07:57.000    9.225186944  -75.827279885    42.9002   5   8   4.6681   4.6829  11.7317  -0.6193  -4.5282   3.3951   0.00    0.0
2024/11/25 15:07:58.000    9.225186475  -75.827279168    42.8424   5   8   4.6681   4.6827  11.7316  -0.6191  -4.5275   3.3955   0.00    0.0
2024/11/25 15:07:59.000    9.225187216  -75.827278338    42.6759   5   8   4.6681   4.6825  11.7316  -0.6190  -4.5267   3.3960   0.00    0.0
2024/11/25 15:08:00.000    9.225187250  -75.827278924    42.7101   5   8   4.6681   4.6823  11.7315  -0.6188  -4.5260   3.3964   0.00    0.0
2024/11/25 15:08:01.000    9.225187003  -75.827279402    42.4539   5   8   4.6681   4.6821  11.7315  -0.6187  -4.5253   3.3969   0.00    0.0
2024/11/25 15:08:02.000    9.225186885  -75.827279531    42.3005   5   8   4.6681   4.6818  11.7314  -0.6185  -4.5246   3.3973   0.00    0.0
2024/11/25 15:08:03.000    9.225186167  -75.827279514    42.0650   5   8   4.6681   4.6816  11.7313  -0.6183  -4.5239   3.3977   0.00    0.0
2024/11/25 15:08:04.000    9.225186501  -75.827280213    42.1580   5   8   4.6681   4.6814  11.7313  -0.6182  -4.5232   3.3982   0.00    0.0
2024/11/25 15:08:05.000    9.225186816  -75.827279947    42.0650   5   8   4.6681   4.6812  11.7312  -0.6180  -4.5225   3.3986   0.00    0.0
2024/11/25 15:08:06.000    9.225186828  -75.827280241    42.1321   5   8   4.6681   4.6810  11.7312  -0.6178  -4.5217   3.3990   0.00    0.0
2024/11/25 15:08:07.000    9.225186983  -75.827280083    42.1102   5   8   4.6681   4.6808  11.7311  -0.6177  -4.5210   3.3995   0.00    0.0
2024/11/25 15:08:08.000    9.225187202  -75.827280083    42.1795   5   8   4.6681   4.6806  11.7311  -0.6175  -4.5203   3.3999   0.00    0.0
2024/11/25 15:08:09.000    9.225186842  -75.827280690    42.1541   5   8   4.6681   4.6804  11.7310  -0.6173  -4.5196   3.4003   0.00    0.0
2024/11/25 15:08:10.000    9.225187176  -75.827280886    42.0512   5   8   4.6681   4.6802  11.7309  -0.6171  -4.5189   3.4008   0.00    0.0
2024/11/25 15:08:11.000    9.225187396  -75.827281419    41.9680   5   8   4.6681   4.6799  11.7309  -0.6170  -4.5182   3.4012   0.00    0.0
2024/11/25 15:08:12.000    9.225186414  -75.827281014    41.9576   5   8   4.6681   4.6797  11.7308  -0.6168  -4.5174   3.4016   0.00    0.0
2024/11/25 15:08:13.000    9.225186471  -75.827280232    41.9634   5   8   4.6681   4.6795  11.7308  -0.6166  -4.5167   3.4021   0.00    0.0
2024/11/25 15:08:14.000    9.225186148  -75.827280127    41.8628   5   8   4.6681   4.6793  11.7307  -0.6165  -4.5160   3.4025   0.00    0.0
2024/11/25 15:08:15.000    9.225186384  -75.827279819    41.8020   5   8   4.6681   4.6791  11.7306  -0.6163  -4.5153   3.4029   0.00    0.0
2024/11/25 15:08:16.000    9.225186294  -75.827278935    41.7387   5   8   4.6680   4.6789  11.7306  -0.6161  -4.5146   3.4034   0.00    0.0
2024/11/25 15:08:17.000    9.225187278  -75.827278013    41.6975   5   8   4.6680   4.6787  11.7305  -0.6160  -4.5139   3.4038   0.00    0.0
2024/11/25 15:08:18.000    9.225186272  -75.827277156    41.5677   5   8   4.6680   4.6785  11.7304  -0.6158  -4.5131   3.4042   0.00    0.0
2024/11/25 15:08:19.000    9.225186302  -75.827277528    41.5652   5   8   4.6680   4.6783  11.7304  -0.6156  -4.5124   3.4046   0.00    0.0
2024/11/25 15:08:20.000    9.225186084  -75.827277598    41.6852   5   8   4.6680   4.6780  11.7303  -0.6155  -4.5117   3.4051   0.00    0.0
2024/11/25 15:08:21.000    9.225185660  -75.827277874    41.6715   5   8   4.6680   4.6778  11.7302  -0.6153  -4.5110   3.4055   0.00    0.0
2024/11/25 15:08:22.000    9.225184830  -75.827278364    41.6981   5   8   4.6680   4.6776  11.7302  -0.6151  -4.5103   3.4059   0.00    0.0
2024/11/25 15:08:23.000    9.225184738  -75.827278909    41.8004   5   8   4.6680   4.6774  11.7301  -0.6149  -4.5095   3.4063   0.00    0.0
2024/11/25 15:08:24.000    9.225184486  -75.827278561    41.7325   5   8   4.6680   4.6772  11.7300  -0.6148  -4.5088   3.4068   0.00    0.0
2024/11/25 15:08:25.000    9.225184719  -75.827278935    41.9260   5   8   4.6680   4.6770  11.7299  -0.6146  -4.5081   3.4072   0.00    0.0
2024/11/25 15:08:26.000    9.225184327  -75.827278402    42.0111   5   8   4.6680   4.6768  11.7299  -0.6144  -4.5074   3.4076   0.00    0.0
2024/11/25 15:08:27.000    9.225184453  -75.827278190    42.1500   5   8   4.6680   4.6766  11.7298  -0.6142  -4.5066   3.4080   0.00    0.0
2024/11/25 15:08:28.000    9.225184547  -75.827278418    42.2437   5   8   4.6680   4.6764  11.7297  -0.6141  -4.5059   3.4085   0.00    0.0
2024/11/25 15:08:29.000    9.225184372  -75.827278696    42.4166   5   8   4.6680   4.6761  11.7297  -0.6139  -4.5052   3.4089   0.00    0.0
2024/11/25 15:08:30.000    9.225184243  -75.827279261    42.4832   5   8   4.6680   4.6759  11.7296  -0.6137  -4.5045   3.4093   0.00    0.0
2024/11/25 15:08:31.000    9.225184617  -75.827279315    42.5639   5   8   4.6680   4.6757  11.7295  -0.6136  -4.5038   3.4097   0.00    0.0
2024/11/25 15:08:32.000    9.225184351  -75.827278615    42.5650   5   8   4.6680   4.6755  11.7294  -0.6134  -4.5030   3.4102   0.00    0.0
2024/11/25 15:08:33.000    9.225184004  -75.827278145    42.5780   5   8   4.6680   4.6753  11.7294  -0.6132  -4.5023   3.4106   0.00    0.0
2024/11/25 15:08:34.000    9.225183339  -75.827278014    42.5678   5   8   4.6679   4.6751  11.7293  -0.6130  -4.5016   3.4110   0.00    0.0
2024/11/25 15:08:35.000    9.225183058  -75.827278236    42.5151   5   8   4.6679   4.6749  11.7292  -0.6129  -4.5009   3.4114   0.00    0.0
2024/11/25 15:08:36.000    9.225182802  -75.827279453    42.8527   5   8   4.6679   4.6747  11.7291  -0.6127  -4.5001   3.4118   0.00    0.0
2024/11/25 15:08:37.000    9.225182693  -75.827279707    43.0299   5   8   4.6679   4.6745  11.7291  -0.6125  -4.4994   3.4123   0.00    0.0
2024/11/25 15:08:38.000    9.225182520  -75.827279357    43.2554   5   8   4.6679   4.6743  11.7290  -0.6123  -4.4987   3.4127   0.00    0.0
2024/11/25 15:08:39.000    9.225181894  -75.827279285    43.2902   5   8   4.6679   4.6740  11.7289  -0.6121  -4.4980   3.4131   0.00    0.0
2024/11/25 15:08:40.000    9.225181574  -75.827279474    43.3509   5   8   4.6679   4.6738  11.7288  -0.6120  -4.4972   3.4135   0.00    0.0
2024/11/25 15:08:41.000    9.225180558  -75.827280003    43.4304   5   8   4.6679   4.6736  11.7287  -0.6118  -4.4965   3.4139   0.00    0.0
2024/11/25 15:08:42.000    9.225180860  -75.827280456    43.4508   5   8   4.6679   4.6734  11.7287  -0.6116  -4.4958   3.4143   0.00    0.0
2024/11/25 15:08:43.000    9.225180787  -75.827280467    43.5660   5   8   4.6679   4.6732  11.7286  -0.6114  -4.4950   3.4148   0.00    0.0
2024/11/25 15:08:44.000    9.225180939  -75.827279674    43.5056   5   8   4.6679   4.6730  11.7285  -0.6113  -4.4943   3.4152   0.00    0.0
2024/11/25 15:08:45.000    9.225180854  -75.827280037    43.4603   5   8   4.6679   4.6728  11.7284  -0.6111  -4.4936   3.4156   0.00    0.0
2024/11/25 15:08:46.000    9.225180791  -75.827279882    43.4039   5   8   4.6679   4.6726  11.7283  -0.6109  -4.4929   3.4160   0.00    0.0
2024/11/25 15:08:47.000    9.225181016  -75.827280372    43.4719   5   8   4.6678   4.6724  11.7282  -0.6107  -4.4921   3.4164   0.00    0.0
2024/11/25 15:08:48.000    9.225181455  -75.827279673    43.2290   5   8   4.6678   4.6722  11.7282  -0.6105  -4.4914   3.4168   0.00    0.0
2024/11/25 15:08:49.000    9.225181385  -75.827280377    43.4023   5   8   4.6678   4.6719  11.7281  -0.6104  -4.4907   3.4172   0.00    0.0
2024/11/25 15:08:50.000    9.225181305  -75.827280399    43.4290   5   8   4.6678   4.6717  11.7280  -0.6102  -4.4899   3.4177   0.00    0.0
2024/11/25 15:08:51.000    9.225180864  -75.827280596    43.4916   5   8   4.6678   4.6715  11.7279  -0.6100  -4.4892   3.4181   0.00    0.0
2024/11/25 15:08:52.000    9.225181421  -75.827280196    43.4745   5   8   4.6678   4.6713  11.7278  -0.6098  -4.4885   3.4185   0.00    0.0
2024/11/25 15:08:53.000    9.225181111  -75.827280266    43.5157   5   8   4.6678   4.6711  11.7277  -0.6096  -4.4878   3.4189   0.00    0.0
2024/11/25 15:08:54.000    9.225181018  -75.827281130    43.6865   5   8   4.6678   4.6709  11.7276  -0.6095  -4.4870   3.4193   0.00    0.0
2024/11/25 15:08:55.000    9.225180484  -75.827280708    43.6603   5   8   4.6678   4.6707  11.7276  -0.6093  -4.4863   3.4197   0.00    0.0
2024/11/25 15:08:56.000    9.225180860  -75.827279924    43.5591   5   8   4.6678   4.6705  11.7275  -0.6091  -4.4856   3.4201   0.00    0.0
2024/11/25 15:08:57.000    9.225181440  -75.827280532    43.8444   5   8   4.6677   4.6703  11.7274  -0.6089  -4.4848   3.4205   0.00    0.0
2024/11/25 15:08:58.000    9.225180870  -75.827279479    43.7242   5   8   4.6677   4.6701  11.7273  -0.6087  -4.4841   3.4209   0.00    0.0
2024/11/25 15:08:59.000    9.225180865  -75.827279313    43.7132   5   8   4.6677   4.6698  11.7272  -0.6085  -4.4834   3.4213   0.00    0.0
2024/11/25 15:09:00.000    9.225181202  -75.827279577    43.8423   5   8   4.6677   4.6696  11.7271  -0.6084  -4.4826   3.4217   0.00    0.0
2024/11/25 15:09:01.000    9.225181267  -75.827279842    43.7714   5   8   4.6677   4.6694  11.7270  -0.6082  -4.4819   3.4222   0.00    0.0
2024/11/25 15:09:02.000    9.225180876  -75.827279699    43.8095   5   8   4.6677   4.6692  11.7269  -0.6080  -4.4812   3.4226   0.00    0.0
2024/11/25 15:09:03.000    9.225181550  -75.827279671    43.8049   5   8   4.6677   4.6690  11.7268  -0.6078  -4.4804   3.4230   0.00    0.0
2024/11/25 15:09:04.000    9.225181398  -75.827279827    43.8135   5   8   4.6677   4.6688  11.7267  -0.6076  -4.4797   3.4234   0.00    0.0
2024/11/25 15:09:05.000    9.225181833  -75.827279732    43.8236   5   8   4.6677   4.6686  11.7266  -0.6074  -4.4790   3.4238   0.00    0.0
2024/11/25 15:09:06.000    9.225181987  -75.827279413    43.7867   5   8   4.6677   4.6684  11.7265  -0.6073  -4.4782   3.4242   0.00    0.0
2024/11/25 15:09:07.000    9.225181268  -75.827280190    43.7349   5   8   4.6676   4.6682  11.7264  -0.6071  -4.4775   3.4246   0.00    0.0
2024/11/25 15:09:08.000    9.225181210  -75.827280042    43.6582   5   8   4.6676   4.6680  11.7263  -0.6069  -4.4768   3.4250   0.00    0.0
2024/11/25 15:09:09.000    9.225181869  -75.827279915    43.7895   5   8   4.6676   4.6678  11.7262  -0.6067  -4.4760   3.4254   0.00    0.0
2024/11/25 15:09:10.000    9.225181652  -75.827280025    43.9516   5   8   4.6676   4.6676  11.7261  -0.6065  -4.4753   3.4258   0.00    0.0
2024/11/25 15:09:11.000    9.225182095  -75.827279626    43.9753   5   8   4.6676   4.6673  11.7260  -0.6063  -4.4746   3.4262   0.00    0.0
2024/11/25 15:09:12.000    9.225182353  -75.827279698    44.0564   5   8   4.6676   4.6671  11.7259  -0.6061  -4.4738   3.4266   0.00    0.0
2024/11/25 15:09:13.000    9.225181843  -75.827279972    44.0857   5   8   4.6676   4.6669  11.7258  -0.6059  -4.4731   3.4270   0.00    0.0
2024/11/25 15:09:14.000    9.225181601  -75.827280007    44.2144   5   8   4.6676   4.6667  11.7257  -0.6058  -4.4724   3.4274   0.00    0.0
2024/11/25 15:09:15.000    9.225180759  -75.827279758    44.1256   5   8   4.6675   4.6665  11.7256  -0.6056  -4.4716   3.4278   0.00    0.0
2024/11/25 15:09:16.000    9.225181085  -75.827280777    44.3300   5   8   4.6675   4.6663  11.7255  -0.6054  -4.4709   3.4282   0.00    0.0
2024/11/25 15:09:17.000    9.225180989  -75.827280906    44.3835   5   8   4.6675   4.6661  11.7254  -0.6052  -4.4701   3.4286   0.00    0.0
2024/11/25 15:09:18.000    9.225180626  -75.827280790    44.3526   5   8   4.6675   4.6659  11.7253  -0.6050  -4.4694   3.4290   0.00    0.0
2024/11/25 15:09:19.000    9.225181059  -75.827281271    44.5135   5   8   4.6675   4.6657  11.7252  -0.6048  -4.4687   3.4294   0.00    0.0
2024/11/25 15:09:20.000    9.225181499  -75.827280900    44.3538   5   8   4.6675   4.6655  11.7251  -0.6046  -4.4679   3.4298   0.00    0.0
2024/11/25 15:09:21.000    9.225181409  -75.827280969    44.1811   5   8   4.6675   4.6653  11.7250  -0.6044  -4.4672   3.4302   0.00    0.0
2024/11/25 15:09:22.000    9.225181845  -75.827280830    44.1237   5   8   4.6674   4.6651  11.7249  -0.6042  -4.4665   3.4306   0.00    0.0
2024/11/25 15:09:23.000    9.225182298  -75.827281322    44.2034   5   8   4.6674   4.6648  11.7248  -0.6040  -4.4657   3.4310   0.00    0.0
2024/11/25 15:09:24.000    9.225182202  -75.827281628    44.1134   5   8   4.6674   4.6646  11.7247  -0.6039  -4.4650   3.4313   0.00    0.0
2024/11/25 15:09:25.000    9.225182728  -75.827282461    44.1572   5   8   4.6674   4.6644  11.7246  -0.6037  -4.4642   3.4317   0.00    0.0
2024/11/25 15:09:26.000    9.225182765  -75.827282311    44.0692   5   8   4.6674   4.6642  11.7245  -0.6035  -4.4635   3.4321   0.00    0.0
2024/11/25 15:09:27.000    9.225183263  -75.827282214    43.9215   5   8   4.6674   4.6640  11.7244  -0.6033  -4.4628   3.4325   0.00    0.0
2024/11/25 15:09:28.000    9.225183810  -75.827282802    43.3547   5   8   4.6674   4.6638  11.7243  -0.6031  -4.4620   3.4329   0.00    0.0
2024/11/25 15:09:29.000    9.225183584  -75.827283617    42.7087   5   8   4.6673   4.6636  11.7242  -0.6029  -4.4613   3.4333   0.00    0.0
2024/11/25 15:09:30.000    9.225183361  -75.827284177    42.1148   5   8   4.6673   4.6634  11.7240  -0.6027  -4.4605   3.4337   0.00    0.0
2024/11/25 15:09:31.000    9.225184039  -75.827284426    41.7633   5   8   4.6673   4.6632  11.7239  -0.6025  -4.4598   3.4341   0.00    0.0
2024/11/25 15:09:32.000    9.225184077  -75.827285090    41.4234   5   8   4.6673   4.6630  11.7238  -0.6023  -4.4590   3.4345   0.00    0.0
2024/11/25 15:09:33.000    9.225184279  -75.827284730    41.1381   5   8   4.6673   4.6628  11.7237  -0.6021  -4.4583   3.4349   0.00    0.0
2024/11/25 15:09:34.000    9.225184503  -75.827285536    41.2078   5   8   4.6673   4.6626  11.7236  -0.6019  -4.4576   3.4353   0.00    0.0
2024/11/25 15:09:35.000    9.225184811  -75.827285838    40.7081   5   8   4.6673   4.6624  11.7235  -0.6017  -4.4568   3.4357   0.00    0.0
2024/11/25 15:09:36.000    9.225185165  -75.827286567    40.3261   5   8   4.6672   4.6621  11.7234  -0.6015  -4.4561   3.4360   0.00    0.0
2024/11/25 15:09:37.000    9.225185521  -75.827286452    39.9404   5   8   4.6672   4.6619  11.7233  -0.6013  -4.4553   3.4364   0.00    0.0
2024/11/25 15:09:38.000    9.225184585  -75.827286389    39.8190   5   8   4.6672   4.6617  11.7231  -0.6011  -4.4546   3.4368   0.00    0.0
2024/11/25 15:09:39.000    9.225184859  -75.827285837    39.4802   5   8   4.6672   4.6615  11.7230  -0.6010  -4.4538   3.4372   0.00    0.0
2024/11/25 15:09:40.000    9.225184729  -75.827285664    39.4212   5   8   4.6672   4.6613  11.7229  -0.6008  -4.4531   3.4376   0.00    0.0
2024/11/25 15:09:41.000    9.225185051  -75.827285636    39.1074   5   8   4.6672   4.6611  11.7228  -0.6006  -4.4524   3.4380   0.00    0.0
2024/11/25 15:09:42.000    9.225184889  -75.827286179    39.1791   5   8   4.6671   4.6609  11.7227  -0.6004  -4.4516   3.4384   0.00    0.0
2024/11/25 15:09:43.000    9.225185164  -75.827285669    38.8216   5   8   4.6671   4.6607  11.7226  -0.6002  -4.4509   3.4387   0.00    0.0
2024/11/25 15:09:44.000    9.225184730  -75.827285360    38.6178   5   8   4.6671   4.6605  11.7224  -0.6000  -4.4501   3.4391   0.00    0.0
2024/11/25 15:09:45.000    9.225184934  -75.827285410    38.7303   5   8   4.6671   4.6603  11.7223  -0.5998  -4.4494   3.4395   0.00    0.0
2024/11/25 15:09:46.000    9.225184486  -75.827285837    38.4290   5   8   4.6671   4.6601  11.7222  -0.5996  -4.4486   3.4399   0.00    0.0
2024/11/25 15:09:47.000    9.225184266  -75.827285607    38.1021   5   8   4.6671   4.6599  11.7221  -0.5994  -4.4479   3.4403   0.00    0.0
2024/11/25 15:09:48.000    9.225183912  -75.827285831    38.2821   5   8   4.6670   4.6597  11.7219  -0.5992  -4.4471   3.4407   0.00    0.0
2024/11/25 15:09:49.000    9.225183058  -75.827285469    38.3088   5   8   4.6670   4.6595  11.7218  -0.5990  -4.4464   3.4410   0.00    0.0
2024/11/25 15:09:50.000    9.225183004  -75.827284756    38.5256   5   8   4.6670   4.6593  11.7217  -0.5988  -4.4456   3.4414   0.00    0.0
2024/11/25 15:09:51.000    9.225183374  -75.827284023    38.7630   5   8   4.6670   4.6590  11.7216  -0.5986  -4.4449   3.4418   0.00    0.0
2024/11/25 15:09:52.000    9.225183886  -75.827284149    38.8476   5   8   4.6670   4.6588  11.7214  -0.5984  -4.4441   3.4422   0.00    0.0
2024/11/25 15:09:53.000    9.225183509  -75.827284579    38.8465   5   8   4.6669   4.6586  11.7213  -0.5982  -4.4434   3.4426   0.00    0.0
2024/11/25 15:09:54.000    9.225183150  -75.827283827    39.0437   5   8   4.6669   4.6584  11.7212  -0.5980  -4.4426   3.4429   0.00    0.0
2024/11/25 15:09:55.000    9.225183077  -75.827284117    39.2830   5   8   4.6669   4.6582  11.7211  -0.5978  -4.4419   3.4433   0.00    0.0
2024/11/25 15:09:56.000    9.225182715  -75.827283952    39.2837   5   8   4.6669   4.6580  11.7209  -0.5976  -4.4411   3.4437   0.00    0.0
2024/11/25 15:09:57.000    9.225182795  -75.827283730    39.4840   5   8   4.6669   4.6578  11.7208  -0.5974  -4.4404   3.4441   0.00    0.0
2024/11/25 15:09:58.000    9.225183066  -75.827282985    39.5360   5   8   4.6669   4.6576  11.7207  -0.5972  -4.4397   3.4444   0.00    0.0
2024/11/25 15:09:59.000    9.225183974  -75.827282686    39.7042   5   8   4.6668   4.6574  11.7206  -0.5970  -4.4389   3.4448   0.00    0.0
2024/11/25 15:10:00.000    9.225183292  -75.827282941    40.1226   5   8   4.6668   4.6572  11.7204  -0.5968  -4.4381   3.4452   0.00    0.0
2024/11/25 15:10:01.000    9.225183288  -75.827281906    40.1775   5   8   4.6668   4.6570  11.7203  -0.5966  -4.4374   3.4456   0.00    0.0
2024/11/25 15:10:02.000    9.225182702  -75.827281726    40.1602   5   8   4.6668   4.6568  11.7202  -0.5964  -4.4366   3.4459   0.00    0.0
2024/11/25 15:10:03.000    9.225182758  -75.827282435    40.2213   5   8   4.6668   4.6566  11.7200  -0.5962  -4.4359   3.4463   0.00    0.0
2024/11/25 15:10:04.000    9.225183063  -75.827282211    40.0429   5   8   4.6667   4.6564  11.7199  -0.5959  -4.4351   3.4467   0.00    0.0
2024/11/25 15:10:05.000    9.225183393  -75.827283255    40.1269   5   8   4.6667   4.6562  11.7198  -0.5957  -4.4344   3.4471   0.00    0.0
2024/11/25 15:10:06.000    9.225183099  -75.827282700    40.0417   5   8   4.6667   4.6560  11.7196  -0.5955  -4.4336   3.4474   0.00    0.0
2024/11/25 15:10:07.000    9.225182739  -75.827282829    40.1672   5   8   4.6667   4.6558  11.7195  -0.5953  -4.4329   3.4478   0.00    0.0
2024/11/25 15:10:08.000    9.225182495  -75.827282470    40.5505   5   8   4.6667   4.6555  11.7194  -0.5951  -4.4321   3.4482   0.00    0.0
2024/11/25 15:10:09.000    9.225182130  -75.827282747    40.4683   5   8   4.6666   4.6553  11.7192  -0.5949  -4.4314   3.4485   0.00    0.0
2024/11/25 15:10:10.000    9.225182060  -75.827282884    40.7620   5   8   4.6666   4.6551  11.7191  -0.5947  -4.4306   3.4489   0.00    0.0
2024/11/25 15:10:11.000    9.225181227  -75.827282819    41.0613   5   8   4.6666   4.6549  11.7190  -0.5945  -4.4299   3.4493   0.00    0.0
2024/11/25 15:10:12.000    9.225180660  -75.827282141    41.2330   5   8   4.6666   4.6547  11.7188  -0.5943  -4.4291   3.4497   0.00    0.0
2024/11/25 15:10:13.000    9.225180884  -75.827281399    41.6540   5   8   4.6665   4.6545  11.7187  -0.5941  -4.4284   3.4500   0.00    0.0
2024/11/25 15:10:14.000    9.225181678  -75.827281524    42.0089   5   8   4.6665   4.6543  11.7185  -0.5939  -4.4276   3.4504   0.00    0.0
2024/11/25 15:10:15.000    9.225182344  -75.827281592    42.2089   5   8   4.6665   4.6541  11.7184  -0.5937  -4.4269   3.4508   0.00    0.0
2024/11/25 15:10:16.000    9.225182981  -75.827281685    42.3332   5   8   4.6665   4.6539  11.7183  -0.5935  -4.4261   3.4511   0.00    0.0
2024/11/25 15:10:17.000    9.225183514  -75.827281382    42.5921   5   8   4.6665   4.6537  11.7181  -0.5933  -4.4253   3.4515   0.00    0.0
2024/11/25 15:10:18.000    9.225182624  -75.827281075    42.7682   5   8   4.6664   4.6535  11.7180  -0.5931  -4.4246   3.4519   0.00    0.0
2024/11/25 15:10:19.000    9.225182772  -75.827280705    43.1090   5   8   4.6664   4.6533  11.7178  -0.5928  -4.4238   3.4522   0.00    0.0
2024/11/25 15:10:20.000    9.225182940  -75.827280468    43.5454   5   8   4.6664   4.6531  11.7177  -0.5926  -4.4231   3.4526   0.00    0.0
2024/11/25 15:10:21.000    9.225182765  -75.827280556    43.5914   5   8   4.6664   4.6529  11.7175  -0.5924  -4.4223   3.4529   0.00    0.0
2024/11/25 15:10:22.000    9.225182608  -75.827280613    43.5426   5   8   4.6663   4.6527  11.7174  -0.5922  -4.4216   3.4533   0.00    0.0
2024/11/25 15:10:23.000    9.225182263  -75.827280317    43.7241   5   8   4.6663   4.6525  11.7173  -0.5920  -4.4208   3.4537   0.00    0.0
2024/11/25 15:10:24.000    9.225182476  -75.827280153    43.9246   5   8   4.6663   4.6523  11.7171  -0.5918  -4.4201   3.4540   0.00    0.0
2024/11/25 15:10:25.000    9.225183005  -75.827279738    44.0988   5   8   4.6663   4.6521  11.7170  -0.5916  -4.4193   3.4544   0.00    0.0
2024/11/25 15:10:26.000    9.225182820  -75.827280082    44.1124   5   8   4.6663   4.6519  11.7168  -0.5914  -4.4185   3.4548   0.00    0.0
2024/11/25 15:10:27.000    9.225182757  -75.827280609    44.0826   5   8   4.6662   4.6517  11.7167  -0.5912  -4.4178   3.4551   0.00    0.0
2024/11/25 15:10:28.000    9.225182738  -75.827280184    44.1838   5   8   4.6662   4.6514  11.7165  -0.5910  -4.4170   3.4555   0.00    0.0
2024/11/25 15:10:29.000    9.225182494  -75.827279710    44.4955   5   8   4.6662   4.6512  11.7164  -0.5907  -4.4163   3.4558   0.00    0.0
2024/11/25 15:10:30.000    9.225182322  -75.827279867    44.4143   5   8   4.6662   4.6510  11.7162  -0.5905  -4.4155   3.4562   0.00    0.0
2024/11/25 15:10:31.000    9.225182518  -75.827280145    44.3427   5   8   4.6661   4.6508  11.7161  -0.5903  -4.4147   3.4566   0.00    0.0
2024/11/25 15:10:32.000    9.225182709  -75.827279819    44.3327   5   8   4.6661   4.6506  11.7159  -0.5901  -4.4140   3.4569   0.00    0.0
2024/11/25 15:10:33.000    9.225182824  -75.827279323    44.3520   5   8   4.6661   4.6504  11.7158  -0.5899  -4.4132   3.4573   0.00    0.0
2024/11/25 15:10:34.000    9.225182682  -75.827279344    44.2709   5   8   4.6661   4.6502  11.7156  -0.5897  -4.4125   3.4576   0.00    0.0
2024/11/25 15:10:35.000    9.225183039  -75.827279420    44.2605   5   8   4.6660   4.6500  11.7155  -0.5895  -4.4117   3.4580   0.00    0.0
2024/11/25 15:10:36.000    9.225182819  -75.827279796    44.2303   5   8   4.6660   4.6498  11.7153  -0.5892  -4.4109   3.4583   0.00    0.0
2024/11/25 15:10:37.000    9.225183220  -75.827279998    43.7826   5   8   4.6660   4.6496  11.7152  -0.5890  -4.4102   3.4587   0.00    0.0
2024/11/25 15:10:38.000    9.225183586  -75.827280119    43.4844   5   8   4.6660   4.6494  11.7150  -0.5888  -4.4094   3.4591   0.00    0.0
2024/11/25 15:10:39.000    9.225183995  -75.827280511    43.6837   5   8   4.6659   4.6492  11.7149  -0.5886  -4.4087   3.4594   0.00    0.0
2024/11/25 15:10:40.000    9.225183971  -75.827281160    43.4004   5   8   4.6659   4.6490  11.7147  -0.5884  -4.4079   3.4598   0.00    0.0
2024/11/25 15:10:41.000    9.225183796  -75.827282218    43.0897   5   8   4.6659   4.6488  11.7145  -0.5882  -4.4071   3.4601   0.00    0.0
2024/11/25 15:10:42.000    9.225183062  -75.827282532    43.0346   5   8   4.6659   4.6486  11.7144  -0.5880  -4.4064   3.4605   0.00    0.0
2024/11/25 15:10:43.000    9.225183444  -75.827282917    42.7814   5   8   4.6658   4.6484  11.7142  -0.5877  -4.4056   3.4608   0.00    0.0
2024/11/25 15:10:44.000    9.225183480  -75.827283008    42.8031   5   8   4.6658   4.6482  11.7141  -0.5875  -4.4048   3.4612   0.00    0.0
2024/11/25 15:10:45.000    9.225183184  -75.827283846    42.5969   5   8   4.6658   4.6480  11.7139  -0.5873  -4.4041   3.4615   0.00    0.0
2024/11/25 15:10:46.000    9.225182813  -75.827284723    42.3601   5   8   4.6658   4.6478  11.7138  -0.5871  -4.4033   3.4619   0.00    0.0
2024/11/25 15:10:47.000    9.225182833  -75.827285255    42.0329   5   8   4.6657   4.6476  11.7136  -0.5869  -4.4025   3.4622   0.00    0.0
2024/11/25 15:10:48.000    9.225182989  -75.827284953    41.5378   5   8   4.6657   4.6474  11.7134  -0.5866  -4.4018   3.4626   0.00    0.0
2024/11/25 15:10:49.000    9.225183046  -75.827285383    41.3187   5   8   4.6657   4.6472  11.7133  -0.5864  -4.4010   3.4629   0.00    0.0
2024/11/25 15:10:50.000    9.225182692  -75.827285037    40.9591   5   8   4.6657   4.6470  11.7131  -0.5862  -4.4002   3.4633   0.00    0.0
2024/11/25 15:10:51.000    9.225183051  -75.827286192    41.0513   5   8   4.6656   4.6468  11.7129  -0.5860  -4.3995   3.4636   0.00    0.0
2024/11/25 15:10:52.000    9.225182334  -75.827286675    40.9593   5   8   4.6656   4.6466  11.7128  -0.5858  -4.3987   3.4640   0.00    0.0
2024/11/25 15:10:53.000    9.225182143  -75.827287015    40.7799   5   8   4.6656   4.6464  11.7126  -0.5855  -4.3980   3.4643   0.00    0.0
2024/11/25 15:10:54.000    9.225182619  -75.827287074    40.3940   5   8   4.6655   4.6462  11.7125  -0.5853  -4.3972   3.4647   0.00    0.0
2024/11/25 15:10:55.000    9.225182530  -75.827286891    40.2262   5   8   4.6655   4.6460  11.7123  -0.5851  -4.3964   3.4650   0.00    0.0
2024/11/25 15:10:56.000    9.225182411  -75.827287046    40.3163   5   8   4.6655   4.6457  11.7121  -0.5849  -4.3957   3.4654   0.00    0.0
2024/11/25 15:10:57.000    9.225182340  -75.827286904    39.9098   5   8   4.6655   4.6455  11.7120  -0.5847  -4.3949   3.4657   0.00    0.0
2024/11/25 15:10:58.000    9.225182767  -75.827287137    39.6607   5   8   4.6654   4.6453  11.7118  -0.5844  -4.3941   3.4660   0.00    0.0
2024/11/25 15:10:59.000    9.225183430  -75.827287706    39.6541   5   8   4.6654   4.6451  11.7116  -0.5842  -4.3933   3.4664   0.00    0.0
2024/11/25 15:11:00.000    9.225183401  -75.827287298    39.6555   5   8   4.6654   4.6449  11.7114  -0.5840  -4.3926   3.4667   0.00    0.0
2024/11/25 15:11:01.000    9.225183421  -75.827288039    39.5517   5   8   4.6653   4.6447  11.7113  -0.5838  -4.3918   3.4671   0.00    0.0
2024/11/25 15:11:02.000    9.225183077  -75.827288709    39.2005   5   8   4.6653   4.6445  11.7111  -0.5835  -4.3910   3.4674   0.00    0.0
2024/11/25 15:11:03.000    9.225183415  -75.827288793    38.9226   5   8   4.6653   4.6443  11.7109  -0.5833  -4.3903   3.4678   0.00    0.0
2024/11/25 15:11:04.000    9.225183211  -75.827289299    38.5492   5   8   4.6653   4.6441  11.7108  -0.5831  -4.3895   3.4681   0.00    0.0
2024/11/25 15:11:05.000    9.225182854  -75.827289610    38.3277   5   8   4.6652   4.6439  11.7106  -0.5829  -4.3887   3.4684   0.00    0.0
2024/11/25 15:11:06.000    9.225182925  -75.827290546    38.1981   5   8   4.6652   4.6437  11.7104  -0.5827  -4.3880   3.4688   0.00    0.0
2024/11/25 15:11:07.000    9.225182839  -75.827291143    37.9985   5   8   4.6652   4.6435  11.7103  -0.5824  -4.3872   3.4691   0.00    0.0
2024/11/25 15:11:08.000    9.225183419  -75.827292480    37.6503   5   8   4.6651   4.6433  11.7101  -0.5822  -4.3864   3.4695   0.00    0.0
2024/11/25 15:11:09.000    9.225183334  -75.827293258    37.2182   5   8   4.6651   4.6431  11.7099  -0.5820  -4.3857   3.4698   0.00    0.0
2024/11/25 15:11:10.000    9.225183541  -75.827293838    36.9040   5   8   4.6651   4.6429  11.7097  -0.5817  -4.3849   3.4701   0.00    0.0
2024/11/25 15:11:11.000    9.225183322  -75.827294463    36.4178   5   8   4.6651   4.6427  11.7096  -0.5815  -4.3841   3.4705   0.00    0.0
2024/11/25 15:11:12.000    9.225183347  -75.827295433    36.2554   5   8   4.6650   4.6425  11.7094  -0.5813  -4.3833   3.4708   0.00    0.0
2024/11/25 15:11:13.000    9.225182739  -75.827296249    36.0369   5   8   4.6650   4.6423  11.7092  -0.5811  -4.3826   3.4711   0.00    0.0
2024/11/25 15:11:14.000    9.225182149  -75.827295969    35.8530   5   8   4.6650   4.6421  11.7090  -0.5808  -4.3818   3.4715   0.00    0.0
2024/11/25 15:11:15.000    9.225181637  -75.827296347    35.9575   5   8   4.6649   4.6419  11.7088  -0.5806  -4.3810   3.4718   0.00    0.0
2024/11/25 15:11:16.000    9.225182390  -75.827296739    35.7052   5   8   4.6649   4.6417  11.7087  -0.5804  -4.3802   3.4721   0.00    0.0
2024/11/25 15:11:17.000    9.225182573  -75.827296897    35.6339   5   8   4.6649   4.6415  11.7085  -0.5802  -4.3795   3.4725   0.00    0.0
2024/11/25 15:11:18.000    9.225183090  -75.827296438    35.8638   5   8   4.6648   4.6413  11.7083  -0.5799  -4.3787   3.4728   0.00    0.0
2024/11/25 15:11:19.000    9.225182987  -75.827296767    35.7842   5   8   4.6648   4.6411  11.7081  -0.5797  -4.3779   3.4731   0.00    0.0
2024/11/25 15:11:20.000    9.225182758  -75.827296598    35.9722   5   8   4.6648   4.6409  11.7079  -0.5795  -4.3772   3.4735   0.00    0.0
2024/11/25 15:11:21.000    9.225182895  -75.827297150    36.1340   5   8   4.6647   4.6407  11.7078  -0.5792  -4.3764   3.4738   0.00    0.0
2024/11/25 15:11:22.000    9.225183057  -75.827297873    36.3670   5   8   4.6647   4.6405  11.7076  -0.5790  -4.3756   3.4741   0.00    0.0
2024/11/25 15:11:23.000    9.225182798  -75.827297775    36.6525   5   8   4.6647   4.6403  11.7074  -0.5788  -4.3748   3.4745   0.00    0.0
2024/11/25 15:11:24.000    9.225183241  -75.827297725    36.8062   5   8   4.6647   4.6401  11.7072  -0.5785  -4.3741   3.4748   0.00    0.0
2024/11/25 15:11:25.000    9.225183082  -75.827296943    37.1290   5   8   4.6646   4.6399  11.7070  -0.5783  -4.3733   3.4751   0.00    0.0
2024/11/25 15:11:26.000    9.225183551  -75.827296420    37.7926   5   8   4.6646   4.6397  11.7068  -0.5781  -4.3725   3.4755   0.00    0.0
2024/11/25 15:11:27.000    9.225184088  -75.827295510    38.2965   5   8   4.6646   4.6395  11.7066  -0.5779  -4.3717   3.4758   0.00    0.0
2024/11/25 15:11:28.000    9.225183847  -75.827294788    38.5807   5   8   4.6645   4.6393  11.7065  -0.5776  -4.3709   3.4761   0.00    0.0
2024/11/25 15:11:29.000    9.225182956  -75.827293871    38.8965   5   8   4.6645   4.6391  11.7063  -0.5774  -4.3702   3.4764   0.00    0.0
2024/11/25 15:11:30.000    9.225182255  -75.827293513    39.1166   5   8   4.6645   4.6389  11.7061  -0.5772  -4.3694   3.4768   0.00    0.0
2024/11/25 15:11:31.000    9.225182186  -75.827292594    39.3655   5   8   4.6644   4.6387  11.7059  -0.5769  -4.3686   3.4771   0.00    0.0
2024/11/25 15:11:32.000    9.225181499  -75.827292813    39.8346   5   8   4.6644   4.6385  11.7057  -0.5767  -4.3678   3.4774   0.00    0.0
2024/11/25 15:11:33.000    9.225181509  -75.827292402    40.0221   5   8   4.6644   4.6383  11.7055  -0.5765  -4.3671   3.4777   0.00    0.0
2024/11/25 15:11:34.000    9.225181578  -75.827292127    40.4449   5   8   4.6643   4.6381  11.7053  -0.5762  -4.3663   3.4781   0.00    0.0
2024/11/25 15:11:35.000    9.225182402  -75.827292030    40.7510   5   8   4.6643   4.6379  11.7051  -0.5760  -4.3655   3.4784   0.00    0.0
2024/11/25 15:11:36.000    9.225182178  -75.827291610    41.0882   5   8   4.6643   4.6377  11.7049  -0.5758  -4.3647   3.4787   0.00    0.0
2024/11/25 15:11:37.000    9.225182042  -75.827290949    41.3287   5   8   4.6642   4.6375  11.7047  -0.5755  -4.3639   3.4790   0.00    0.0
2024/11/25 15:11:38.000    9.225183102  -75.827290554    41.5742   5   8   4.6642   4.6373  11.7046  -0.5753  -4.3632   3.4794   0.00    0.0
2024/11/25 15:11:39.000    9.225183312  -75.827290058    41.7476   5   8   4.6642   4.6371  11.7044  -0.5750  -4.3624   3.4797   0.00    0.0
2024/11/25 15:11:40.000    9.225183585  -75.827289950    41.8655   5   8   4.6641   4.6369  11.7042  -0.5748  -4.3616   3.4800   0.00    0.0
2024/11/25 15:11:41.000    9.225183277  -75.827289337    41.9958   5   8   4.6641   4.6367  11.7040  -0.5746  -4.3608   3.4803   0.00    0.0
2024/11/25 15:11:42.000    9.225183288  -75.827288840    42.2140   5   8   4.6641   4.6365  11.7038  -0.5743  -4.3600   3.4807   0.00    0.0
2024/11/25 15:11:43.000    9.225183649  -75.827288698    42.2581   5   8   4.6640   4.6363  11.7036  -0.5741  -4.3593   3.4810   0.00    0.0
2024/11/25 15:11:44.000    9.225183588  -75.827288407    42.3602   5   8   4.6640   4.6361  11.7034  -0.5739  -4.3585   3.4813   0.00    0.0
2024/11/25 15:11:45.000    9.225184061  -75.827288323    42.5502   5   8   4.6639   4.6359  11.7032  -0.5736  -4.3577   3.4816   0.00    0.0
2024/11/25 15:11:46.000    9.225183433  -75.827287870    42.6171   5   8   4.6639   4.6357  11.7030  -0.5734  -4.3569   3.4819   0.00    0.0
2024/11/25 15:11:47.000    9.225182943  -75.827287303    42.7004   5   8   4.6639   4.6355  11.7028  -0.5731  -4.3561   3.4822   0.00    0.0
2024/11/25 15:11:48.000    9.225182689  -75.827287209    42.6889   5   8   4.6638   4.6353  11.7026  -0.5729  -4.3554   3.4826   0.00    0.0
2024/11/25 15:11:49.000    9.225183060  -75.827286485    42.7677   5   8   4.6638   4.6351  11.7024  -0.5727  -4.3546   3.4829   0.00    0.0
2024/11/25 15:11:50.000    9.225183890  -75.827286413    42.9290   5   8   4.6638   4.6349  11.7022  -0.5724  -4.3538   3.4832   0.00    0.0
2024/11/25 15:11:51.000    9.225184440  -75.827285648    43.1870   5   8   4.6637   4.6347  11.7020  -0.5722  -4.3530   3.4835   0.00    0.0
2024/11/25 15:11:52.000    9.225185138  -75.827285622    43.3696   5   8   4.6637   4.6345  11.7018  -0.5719  -4.3522   3.4838   0.00    0.0
2024/11/25 15:11:53.000    9.225185001  -75.827285493    43.4458   5   8   4.6637   4.6343  11.7016  -0.5717  -4.3514   3.4841   0.00    0.0
2024/11/25 15:11:54.000    9.225184953  -75.827284941    43.2763   5   8   4.6636   4.6341  11.7014  -0.5715  -4.3507   3.4845   0.00    0.0
2024/11/25 15:11:55.000    9.225184644  -75.827284170    43.2527   5   8   4.6636   4.6339  11.7012  -0.5712  -4.3499   3.4848   0.00    0.0
2024/11/25 15:11:56.000    9.225184258  -75.827283540    43.2081   5   8   4.6636   4.6337  11.7010  -0.5710  -4.3491   3.4851   0.00    0.0
2024/11/25 15:11:57.000    9.225184070  -75.827283390    43.2219   5   8   4.6635   4.6335  11.7008  -0.5707  -4.3483   3.4854   0.00    0.0
2024/11/25 15:11:58.000    9.225184010  -75.827282884    42.9443   5   8   4.6635   4.6333  11.7005  -0.5705  -4.3475   3.4857   0.00    0.0
2024/11/25 15:11:59.000    9.225183701  -75.827282350    42.9046   5   8   4.6634   4.6331  11.7003  -0.5703  -4.3467   3.4860   0.00    0.0
2024/11/25 15:12:00.000    9.225183899  -75.827282543    43.0135   5   8   4.6634   4.6329  11.7001  -0.5700  -4.3460   3.4863   0.00    0.0
2024/11/25 15:12:01.000    9.225183476  -75.827282457    43.0107   5   8   4.6634   4.6327  11.6999  -0.5698  -4.3452   3.4866   0.00    0.0
2024/11/25 15:12:02.000    9.225183464  -75.827281563    42.9139   5   8   4.6633   4.6325  11.6997  -0.5695  -4.3444   3.4869   0.00    0.0
2024/11/25 15:12:03.000    9.225183533  -75.827281202    42.9354   5   8   4.6633   4.6323  11.6995  -0.5693  -4.3436   3.4873   0.00    0.0
2024/11/25 15:12:04.000    9.225184087  -75.827281441    43.0375   5   8   4.6633   4.6321  11.6993  -0.5690  -4.3428   3.4876   0.00    0.0
2024/11/25 15:12:05.000    9.225183399  -75.827280689    43.0475   5   8   4.6632   4.6319  11.6991  -0.5688  -4.3420   3.4879   0.00    0.0
2024/11/25 15:12:06.000    9.225182723  -75.827279933    42.9699   5   8   4.6632   4.6317  11.6989  -0.5685  -4.3412   3.4882   0.00    0.0
2024/11/25 15:12:07.000    9.225183097  -75.827279680    42.9738   5   8   4.6631   4.6315  11.6987  -0.5683  -4.3404   3.4885   0.00    0.0
2024/11/25 15:12:08.000    9.225184062  -75.827279579    42.9138   5   8   4.6631   4.6313  11.6984  -0.5681  -4.3397   3.4888   0.00    0.0
2024/11/25 15:12:09.000    9.225184167  -75.827279047    42.9735   5   8   4.6631   4.6311  11.6982  -0.5678  -4.3389   3.4891   0.00    0.0
2024/11/25 15:12:10.000    9.225183843  -75.827278080    43.0581   5   8   4.6630   4.6309  11.6980  -0.5676  -4.3381   3.4894   0.00    0.0
2024/11/25 15:12:11.000    9.225183526  -75.827278282    43.1000   5   8   4.6630   4.6307  11.6978  -0.5673  -4.3373   3.4897   0.00    0.0
2024/11/25 15:12:12.000    9.225183227  -75.827278017    43.2001   5   8   4.6629   4.6305  11.6976  -0.5671  -4.3365   3.4900   0.00    0.0
2024/11/25 15:12:13.000    9.225182811  -75.827277399    43.0835   5   8   4.6629   4.6303  11.6974  -0.5668  -4.3357   3.4903   0.00    0.0
2024/11/25 15:12:14.000    9.225182482  -75.827277601    43.1999   5   8   4.6629   4.6301  11.6972  -0.5666  -4.3349   3.4906   0.00    0.0
2024/11/25 15:12:15.000    9.225182641  -75.827277513    43.2520   5   8   4.6628   4.6299  11.6969  -0.5663  -4.3341   3.4909   0.00    0.0
2024/11/25 15:12:16.000    9.225182605  -75.827277969    43.1194   5   8   4.6628   4.6297  11.6967  -0.5661  -4.3333   3.4912   0.00    0.0
2024/11/25 15:12:17.000    9.225181740  -75.827278152    43.0378   5   8   4.6627   4.6295  11.6965  -0.5658  -4.3326   3.4915   0.00    0.0
2024/11/25 15:12:18.000    9.225181551  -75.827277884    42.9153   5   8   4.6627   4.6293  11.6963  -0.5656  -4.3318   3.4918   0.00    0.0
2024/11/25 15:12:19.000    9.225181781  -75.827277778    42.7603   5   8   4.6627   4.6291  11.6961  -0.5653  -4.3310   3.4921   0.00    0.0
2024/11/25 15:12:20.000    9.225181894  -75.827277779    42.6826   5   8   4.6626   4.6289  11.6958  -0.5651  -4.3302   3.4924   0.00    0.0
2024/11/25 15:12:21.000    9.225181984  -75.827277587    42.5360   5   8   4.6626   4.6287  11.6956  -0.5648  -4.3294   3.4927   0.00    0.0
2024/11/25 15:12:22.000    9.225182561  -75.827277347    42.5763   5   8   4.6625   4.6285  11.6954  -0.5646  -4.3286   3.4930   0.00    0.0
2024/11/25 15:12:23.000    9.225182266  -75.827277304    42.6420   5   8   4.6625   4.6283  11.6952  -0.5643  -4.3278   3.4933   0.00    0.0
2024/11/25 15:12:24.000    9.225181763  -75.827276797    42.4098   5   8   4.6625   4.6281  11.6949  -0.5641  -4.3270   3.4936   0.00    0.0
2024/11/25 15:12:25.000    9.225181130  -75.827276801    42.1697   5   8   4.6624   4.6279  11.6947  -0.5638  -4.3262   3.4939   0.00    0.0
2024/11/25 15:12:26.000    9.225181079  -75.827277542    42.1468   5   8   4.6624   4.6277  11.6945  -0.5636  -4.3254   3.4942   0.00    0.0
2024/11/25 15:12:27.000    9.225180257  -75.827277753    42.1549   5   8   4.6623   4.6275  11.6943  -0.5633  -4.3246   3.4945   0.00    0.0
2024/11/25 15:12:28.000    9.225179593  -75.827276973    42.1172   5   8   4.6623   4.6273  11.6940  -0.5631  -4.3238   3.4948   0.00    0.0
2024/11/25 15:12:29.000    9.225179215  -75.827277568    42.0866   5   8   4.6623   4.6272  11.6938  -0.5628  -4.3230   3.4951   0.00    0.0
2024/11/25 15:12:30.000    9.225178750  -75.827277284    42.0398   5   8   4.6622   4.6270  11.6936  -0.5626  -4.3222   3.4954   0.00    0.0
2024/11/25 15:12:31.000    9.225178967  -75.827277835    41.9711   5   8   4.6622   4.6268  11.6934  -0.5623  -4.3215   3.4957   0.00    0.0
2024/11/25 15:12:32.000    9.225179280  -75.827279127    41.8856   5   8   4.6621   4.6266  11.6931  -0.5620  -4.3207   3.4960   0.00    0.0
2024/11/25 15:12:33.000    9.225178946  -75.827280297    41.3551   5   8   4.6621   4.6264  11.6929  -0.5618  -4.3199   3.4963   0.00    0.0
2024/11/25 15:12:34.000    9.225178839  -75.827280626    40.7271   5   8   4.6620   4.6262  11.6927  -0.5615  -4.3191   3.4966   0.00    0.0
2024/11/25 15:12:35.000    9.225178509  -75.827281669    40.0361   5   8   4.6620   4.6260  11.6924  -0.5613  -4.3183   3.4968   0.00    0.0
2024/11/25 15:12:36.000    9.225178475  -75.827282292    39.8545   5   8   4.6620   4.6258  11.6922  -0.5610  -4.3175   3.4971   0.00    0.0
2024/11/25 15:12:37.000    9.225178945  -75.827283059    39.5291   5   8   4.6619   4.6256  11.6920  -0.5608  -4.3167   3.4974   0.00    0.0
2024/11/25 15:12:38.000    9.225177998  -75.827283752    39.2261   5   8   4.6619   4.6254  11.6917  -0.5605  -4.3159   3.4977   0.00    0.0
2024/11/25 15:12:39.000    9.225177970  -75.827284251    38.8165   5   8   4.6618   4.6252  11.6915  -0.5602  -4.3151   3.4980   0.00    0.0
